City_ID,City,Lat,Lng,Max Temp,Humidity,Cloudiness,Wind Speed,Country,Date
0,nikolskoye,59.7035,30.7861,30.09,96,100,6.38,RU,1675304343
1,sidi ali,36.0998,0.4206,45.07,72,0,5.91,DZ,1675304343
2,busselton,-33.65,115.3333,72.3,42,96,15.84,AU,1675304343
3,constitucion,-35.3333,-72.4167,59.95,70,0,13.2,CL,1675304211
4,cidreira,-30.1811,-50.2056,75.22,90,1,6.8,BR,1675304344
5,vao,-22.6667,167.4833,80.04,77,23,6.44,NC,1675304108
6,vaini,-21.2,-175.2,86.16,70,75,14.97,TO,1675304344
7,barrow,71.2906,-156.7887,-7.58,77,0,20.71,US,1675304345
8,kristiansund,63.1115,7.732,34.45,93,100,3.44,NO,1675304345
9,cape town,-33.9258,18.4232,65.1,71,20,14.97,ZA,1675304345
10,castro,-24.7911,-50.0119,63.23,95,57,2.39,BR,1675304345
11,ushuaia,-54.8,-68.3,55.06,67,40,10.36,AR,1675304182
12,punta arenas,-53.15,-70.9167,57.31,58,75,13.8,CL,1675304218
13,mikhaylovka,50.06,43.2379,31.78,86,100,5.79,RU,1675304346
14,vung tau,10.346,107.0843,79.74,75,95,11.48,VN,1675304346
15,mataura,-46.1927,168.8643,75.47,66,100,4.09,NZ,1675304347
16,rikitea,-23.1203,-134.9692,79.7,75,6,12.88,PF,1675304347
17,bredasdorp,-34.5322,20.0403,63.54,80,14,3.51,ZA,1675304347
18,thompson,55.7435,-97.8558,-21.84,69,20,16.11,CA,1675304348
19,mar del plata,-38.0023,-57.5575,71.1,80,0,8.05,AR,1675304348
20,grafton,42.207,-71.6856,25.16,61,0,9.22,US,1675304158
21,yellowknife,62.456,-114.3525,-31.45,75,0,2.3,CA,1675304348
22,albany,42.6001,-73.9662,20.59,65,11,6.26,US,1675304124
23,naron,43.5167,-8.1528,44.67,79,0,10.29,ES,1675304349
24,tiksi,71.6872,128.8694,-16.65,99,100,8.23,RU,1675304349
25,paragominas,-2.9667,-47.4833,71.19,100,100,1.12,BR,1675304099
26,nanortalik,60.1432,-45.2371,19.92,79,99,9.95,GL,1675304349
27,tasiilaq,65.6145,-37.6368,19.56,79,100,20.87,GL,1675304350
28,avarua,-21.2078,-159.775,73.45,94,75,4.61,CK,1675304350
29,bluff,-46.6,168.3333,68.16,80,77,11.21,NZ,1675304350
30,tabas,33.5959,56.9244,41.22,93,1,4.61,IR,1675304351
31,carnarvon,-24.8667,113.6333,86.95,57,43,10.71,AU,1675304351
32,banda aceh,5.5577,95.3222,80.49,75,90,5.66,ID,1675304351
33,bethel,41.3712,-73.414,30.76,51,0,4.61,US,1675304352
34,bubaque,11.2833,-15.8333,77.68,60,1,14.45,GW,1675304352
35,hofn,64.2539,-15.2082,27.68,75,92,11.05,IS,1675304352
36,kyenjojo,0.6328,30.6214,59.74,80,16,0.49,UG,1675304353
37,koygorodok,60.445,50.9968,19.83,94,99,7.27,RU,1675304353
38,atuona,-9.8,-139.0333,78.67,79,100,15.37,PF,1675304152
39,kodiak,57.79,-152.4072,35.11,75,0,5.75,US,1675304353
40,port alfred,-33.5906,26.891,63.18,92,0,10.56,ZA,1675304354
41,kulhudhuffushi,6.6221,73.07,79.84,69,64,11.23,MV,1675304354
42,butaritari,3.0707,172.7902,80.28,79,100,19.53,KI,1675304354
43,swinoujscie,53.9105,14.2471,39.34,93,100,17.27,PL,1675304355
44,tessalit,20.1986,1.0114,63.64,14,87,7.67,ML,1675304355
45,grindavik,63.8424,-22.4338,34.27,93,100,37.98,IS,1675304070
46,puerto ayora,-0.7393,-90.3518,77.56,95,81,4.56,EC,1675304355
47,hobart,-42.8794,147.3294,69.26,47,75,18.41,AU,1675304176
48,codrington,-38.2667,141.9667,55.11,89,100,19.77,AU,1675304356
49,norman wells,65.282,-126.8329,-36.36,67,40,2.3,CA,1675304356
50,tautira,-17.7333,-149.15,82.33,71,45,19.39,PF,1675304356
51,leningradskiy,69.3833,178.4167,-9.69,99,79,5.75,RU,1675304357
52,waddan,29.1614,16.139,54.16,62,100,5.44,LY,1675304357
53,san patricio,28.017,-97.5169,39.07,89,100,12.12,US,1675304357
54,hithadhoo,-0.6,73.0833,80.42,77,43,9.17,MV,1675304358
55,tabuk,17.4189,121.4443,79.38,75,29,4.97,PH,1675304358
56,torbay,47.6666,-52.7314,10.27,85,20,4.61,CA,1675304359
57,chuy,-33.6971,-53.4616,71.22,78,34,8.81,UY,1675304359
58,chumikan,54.7183,135.315,-10.68,86,81,16.78,RU,1675304359
59,lewisporte,49.2499,-55.0482,10.11,96,65,3.67,CA,1675304360
60,mandera,3.9366,41.867,74.21,75,0,9.73,KE,1675304360
61,portland,45.5234,-122.6762,43.11,65,40,8.05,US,1675304330
62,verkhoyansk,67.5447,133.385,-30.53,99,99,0.87,RU,1675304360
63,vardo,70.3705,31.1107,31.98,59,20,16.11,NO,1675304361
64,berlevag,70.8578,29.0864,28.35,74,20,6.91,NO,1675304361
65,nabire,-3.3667,135.4833,84.06,71,81,3.96,ID,1675304361
66,dunedin,-45.8742,170.5036,70.81,83,97,1.99,NZ,1675304231
67,severo-kurilsk,50.6789,156.125,23.74,62,44,5.97,RU,1675304362
68,lebu,-37.6167,-73.65,57.18,82,0,23.51,CL,1675304112
69,panama city,8.9936,-79.5197,79.84,74,20,8.05,PA,1675304362
70,muros,42.7762,-9.0603,41.85,88,3,6.35,ES,1675304362
71,gigmoto,13.7796,124.39,79.77,86,25,12.33,PH,1675304363
72,saint-philippe,-21.3585,55.7679,74.79,83,13,6.6,RE,1675304363
73,marsa matruh,31.3525,27.2453,56.19,56,100,9.06,EG,1675304363
74,svetlyy,54.675,20.1347,35.96,98,100,11.52,RU,1675304364
75,tilichiki,60.4667,166.1,13.06,93,100,6.93,RU,1675304364
76,dogondoutchi,13.6393,4.0287,73.67,15,96,10.69,NE,1675304364
77,staunton,38.1496,-79.0717,34.09,95,100,1.01,US,1675304365
78,rylsk,51.5655,34.6822,26.96,96,100,10.65,RU,1675304365
79,sahuaripa,29.05,-109.2333,53.64,74,100,4.79,MX,1675304365
80,poya,-21.35,165.15,86.4,59,100,4.99,NC,1675304366
81,clyde river,70.4692,-68.5914,-32.57,68,0,13.8,CA,1675304366
82,port elizabeth,-33.918,25.5701,67.32,84,75,9.22,ZA,1675304366
83,naze,28.3667,129.4833,61.72,80,100,12.3,JP,1675304232
84,srednekolymsk,67.45,153.6833,-22.79,99,98,5.77,RU,1675304174
85,mokshan,53.4365,44.6132,24.19,95,100,11.18,RU,1675304367
86,qaanaaq,77.484,-69.3632,-9.6,64,0,8.43,GL,1675304367
87,launceston,-41.45,147.1667,59.61,84,100,19.57,AU,1675304368
88,chikhli,20.35,76.25,61.41,34,45,5.37,IN,1675304368
89,lorengau,-2.0226,147.2712,85.44,62,74,4.54,PG,1675304368
90,ellensburg,46.9965,-120.5479,29.17,72,0,0.0,US,1675304369
91,faanui,-16.4833,-151.75,82.13,74,62,17.98,PF,1675304369
92,hermanus,-34.4187,19.2345,63.81,83,10,6.2,ZA,1675304369
93,christchurch,-43.5333,172.6333,84.4,34,100,18.41,NZ,1675304105
94,avera,33.194,-82.5271,59.56,85,100,7.27,US,1675304370
95,solnechnyy,50.7214,136.6319,-3.35,91,87,2.33,RU,1675304370
96,sur,22.5667,59.5289,65.05,72,3,5.32,OM,1675304371
97,ahipara,-35.1667,173.1667,75.45,66,100,7.87,NZ,1675304371
98,north bend,43.4065,-124.2243,48.11,90,0,12.66,US,1675304235
99,gat,31.61,34.7642,53.08,100,100,15.19,IL,1675304283
100,paracatu,-17.2222,-46.8747,67.71,79,100,1.88,BR,1675304280
101,ulverstone,-41.15,146.1667,56.21,87,100,22.84,AU,1675304372
102,putina,-15.4667,-69.4333,45.63,78,100,9.13,PE,1675304372
103,sept-iles,50.2001,-66.3821,8.6,80,75,3.44,CA,1675304286
104,khor,47.8861,134.9464,-1.39,89,18,11.43,RU,1675304372
105,yarovoye,52.9273,78.58,3.76,98,98,4.16,RU,1675304373
106,sobolevo,54.4299,31.8996,29.19,97,100,12.66,RU,1675304373
107,victoria,22.2855,114.1577,73.45,78,0,5.01,HK,1675304365
108,mehamn,71.0357,27.8492,28.31,93,100,4.61,NO,1675304374
109,los llanos de aridane,28.6585,-17.9182,55.15,63,0,10.36,ES,1675304374
110,karasjok,69.4719,25.5112,9.12,98,96,5.23,NO,1675304374
111,sitka,57.0531,-135.33,39.09,75,100,6.91,US,1675304374
112,nishihara,26.1842,127.7558,69.85,78,75,5.75,JP,1675304375
113,mahebourg,-20.4081,57.7,76.24,94,40,2.3,MU,1675304375
114,cabra,37.4725,-4.4421,41.85,59,0,3.04,ES,1675304375
115,lazaro cardenas,17.9583,-102.2,74.79,73,3,4.03,MX,1675304376
116,vilhena,-12.7406,-60.1458,68.85,96,100,0.98,BR,1675304319
117,rio grande,-32.035,-52.0986,74.46,83,1,10.29,BR,1675304096
118,chara,56.9064,118.2631,-10.44,80,40,1.63,RU,1675304376
119,kitimat,54.0524,-128.6534,34.18,100,100,1.74,CA,1675304376
120,lavrentiya,65.5833,-171.0,15.04,94,100,6.58,RU,1675304377
121,kerman,30.2832,57.0788,46.26,66,40,2.3,IR,1675304080
122,east london,-33.0153,27.9116,69.37,83,16,12.8,ZA,1675304377
123,tsabong,-26.0217,22.401,75.61,63,97,3.31,BW,1675304377
124,sibolga,1.7427,98.7792,77.2,71,100,2.93,ID,1675304378
125,tukrah,32.5341,20.5791,56.03,66,98,7.36,LY,1675304378
126,geraldton,-28.7667,114.6,100.81,20,0,18.41,AU,1675304378
127,jamestown,42.097,-79.2353,18.99,80,0,8.05,US,1675304215
128,la rioja,42.25,-2.5,24.58,92,8,5.61,ES,1675304379
129,porto-vecchio,41.591,9.2795,45.93,93,75,3.44,FR,1675304379
130,ambon,-3.6954,128.1814,86.14,70,40,8.05,ID,1675304379
131,yuryevets,57.3201,43.1041,23.72,96,100,9.48,RU,1675304380
132,faya,18.3851,42.4509,52.32,62,16,4.9,SA,1675304380
133,kloulklubed,7.0419,134.2556,82.9,74,100,21.85,PW,1675304380
134,saint anthony,45.0205,-93.218,15.42,69,0,5.75,US,1675304381
135,chokurdakh,70.6333,147.9167,-10.3,98,100,3.74,RU,1675304101
136,ilo,-17.6394,-71.3375,72.36,89,62,5.59,PE,1675304381
137,san cristobal,7.7669,-72.225,68.18,87,20,2.06,VE,1675304381
138,marawi,7.9986,124.2928,77.59,71,100,4.18,PH,1675304382
139,dikson,73.5069,80.5464,-5.1,93,97,8.05,RU,1675304382
140,emerald,-23.5333,148.1667,92.34,51,78,7.09,AU,1675304382
141,bertoua,4.5833,13.6833,67.26,47,7,3.98,CM,1675304382
142,lagoa,39.05,-27.9833,56.62,70,4,7.07,PT,1675304383
143,longyearbyen,78.2186,15.6401,12.04,67,20,17.27,SJ,1675304383
144,kunda,25.7167,81.5167,48.25,64,39,7.16,IN,1675304383
145,tongliao,43.6125,122.2653,15.76,33,0,8.57,CN,1675304384
146,namibe,-15.1961,12.1522,71.13,81,100,4.68,AO,1675304384
147,fairbanks,64.8378,-147.7164,12.81,83,100,5.75,US,1675304100
148,tuatapere,-46.1333,167.6833,75.52,59,100,4.25,NZ,1675304385
149,tuktoyaktuk,69.4541,-133.0374,-34.6,67,75,4.61,CA,1675304385
150,rocha,-34.4833,-54.3333,67.95,81,100,6.04,UY,1675304385
151,velizh,55.6056,31.1967,27.46,96,99,9.22,RU,1675304357
152,elliot,-31.3333,27.85,57.61,83,72,2.46,ZA,1675304386
153,concordia,-31.393,-58.0209,87.78,45,15,11.99,AR,1675304386
154,sohag,26.557,31.6948,50.11,62,4,7.02,EG,1675304386
155,paamiut,61.994,-49.6678,11.39,78,94,7.54,GL,1675304387
156,xining,36.6167,101.7667,23.58,43,46,1.14,CN,1675304387
157,husavik,66.0449,-17.3389,21.54,92,100,8.99,IS,1675304387
158,kapaa,22.0752,-159.319,80.92,78,20,9.22,US,1675304388
159,fukue,32.6881,128.8419,52.16,58,75,8.05,JP,1675304388
160,soure,-0.7167,-48.5233,74.28,90,100,1.9,BR,1675304388
161,khatanga,71.9667,102.5,-22.47,95,100,6.29,RU,1675304219
162,alekseyevka,50.6309,38.6903,26.94,96,82,4.83,RU,1675304389
163,boma,7.0805,-2.1697,71.33,91,5,2.89,GH,1675304389
164,alofi,-19.0595,-169.9187,82.29,78,100,14.97,NU,1675304389
165,sjenica,43.2731,19.9994,20.84,95,80,3.78,RS,1675304390
166,fenoarivo atsinanana,-17.3667,49.4167,75.16,90,52,7.11,MG,1675304390
167,adrar,20.5022,-10.0711,60.19,16,100,10.33,MR,1675304212
168,meiganga,6.5167,14.3,68.41,26,3,5.97,CM,1675304390
169,lahaina,20.8783,-156.6825,79.95,86,66,3.78,US,1675304391
170,bambous virieux,-20.3428,57.7575,75.45,94,40,2.3,MU,1675304142
171,souillac,-20.5167,57.5167,75.58,94,40,2.3,MU,1675304391
172,atar,20.5169,-13.0499,68.2,11,100,4.88,MR,1675304391
173,mayo,38.8876,-76.5119,34.95,67,0,5.75,US,1675304392
174,college,64.8569,-147.8028,12.79,84,100,5.75,US,1675304392
175,georgetown,5.4112,100.3354,80.53,78,20,6.91,MY,1675304392
176,lerwick,60.1545,-1.1494,35.6,68,100,6.17,GB,1675304392
177,saint-pierre,-21.3393,55.4781,74.88,69,0,5.75,RE,1675304393
178,esperance,-33.8667,121.9,64.51,70,99,11.56,AU,1675304393
179,meulaboh,4.1363,96.1285,78.28,75,64,4.32,ID,1675304393
180,cherskiy,68.75,161.3,-5.13,98,98,3.6,RU,1675304394
181,adtuyon,7.8144,124.8557,77.59,71,100,7.43,PH,1675304394
182,moshny,49.5147,31.7476,30.0,92,95,6.93,UA,1675304394
183,saldanha,-33.0117,17.9442,62.74,89,0,17.81,ZA,1675304394
184,douglasville,33.7515,-84.7477,54.09,89,100,1.99,US,1675304344
185,tixpehual,20.9833,-89.5167,78.01,83,0,10.36,MX,1675304395
186,arraial do cabo,-22.9661,-42.0278,78.66,78,20,10.36,BR,1675304395
187,gongzhuling,43.5008,124.8198,11.28,62,1,8.5,CN,1675304395
188,sao filipe,14.8961,-24.4956,70.99,72,53,10.76,CV,1675304396
189,oshakati,-17.7833,15.6833,71.4,72,96,0.87,NA,1675304396
190,aykhal,66.0,111.5,-25.92,100,97,3.98,RU,1675304396
191,caravelas,-17.7125,-39.2481,75.07,87,98,5.37,BR,1675304397
192,mordovo,52.0834,40.77,21.94,98,99,5.57,RU,1675304397
193,ouesso,1.6136,16.0517,73.81,74,92,2.42,CG,1675304398
194,pedernales,18.0384,-71.744,75.33,73,7,5.06,DO,1675304398
195,zletovo,41.9886,22.2361,34.03,68,14,3.36,MK,1675304398
196,verkhnyaya inta,65.9811,60.3094,22.87,84,50,17.94,RU,1675304398
197,peleduy,59.6289,112.7406,7.48,94,100,8.95,RU,1675304399
198,kutum,14.2,24.6667,57.92,23,57,7.23,SD,1675304186
199,gorom-gorom,14.4439,-0.2361,73.47,7,12,7.58,BF,1675304399
200,sorong,-0.8833,131.25,83.37,74,47,8.08,ID,1675304400
201,anadyr,64.75,177.4833,25.3,92,20,17.9,RU,1675304228
202,gloversville,43.0528,-74.3438,20.55,74,40,6.91,US,1675304400
203,yerkoy,39.6381,34.4672,21.97,90,63,4.07,TR,1675304401
204,mecca,21.4267,39.8261,64.69,58,43,12.37,SA,1675304401
205,puerto escondido,15.85,-97.0667,79.63,69,0,0.0,MX,1675304401
206,pakenham,-38.0667,145.4833,71.46,40,48,10.0,AU,1675304402
207,buchanan,5.8808,-10.0467,77.95,90,3,2.82,LR,1675304402
208,bugene,-1.5911,31.1403,56.08,89,29,1.34,TZ,1675304402
209,port lincoln,-34.7333,135.8667,66.61,65,81,28.34,AU,1675304347
210,palana,59.1167,159.9667,9.21,85,100,5.79,RU,1675304403
211,tsiroanomandidy,-18.7667,46.0333,67.48,95,100,0.47,MG,1675304403
212,el alto,-4.2714,-81.2147,74.86,78,80,3.44,PE,1675304403
213,palu,-0.8917,119.8707,82.22,84,100,2.37,ID,1675304404
214,nong bua,15.8646,100.5858,77.9,27,37,2.73,TH,1675304404
215,yerbogachen,61.2767,108.0108,-12.06,99,82,5.95,RU,1675304404
216,kaitangata,-46.2817,169.8464,72.09,70,80,4.88,NZ,1675304405
217,new norfolk,-42.7826,147.0587,68.92,39,98,5.99,AU,1675304405
218,henties bay,-22.116,14.2845,62.69,90,100,4.97,NA,1675304114
219,okuchi,32.0667,130.6167,52.48,47,31,0.78,JP,1675304405
220,krasnoselkup,65.7,82.4667,0.27,99,88,8.57,RU,1675304406
221,provideniya,64.3833,-173.3,24.91,80,75,15.66,RU,1675304406
222,daitari,21.1,85.75,63.07,28,7,4.29,IN,1675304406
223,katherine,-14.4667,132.2667,89.92,62,75,14.97,AU,1675304215
224,nueva imperial,-38.7333,-72.95,54.25,86,1,7.34,CL,1675304407
225,cabo san lucas,22.8909,-109.9124,67.6,73,0,4.61,MX,1675304200
226,tutoia,-2.7619,-42.2744,79.36,85,100,10.58,BR,1675304407
227,mount isa,-20.7333,139.5,73.17,94,75,6.91,AU,1675304408
228,hasaki,35.7333,140.8333,46.8,39,100,15.32,JP,1675304408
229,ambovombe,-25.1667,46.0833,70.75,88,39,13.56,MG,1675304408
230,oistins,13.0667,-59.5333,75.29,73,20,8.05,BB,1675304409
231,khilok,51.3674,110.4676,3.67,84,91,3.89,RU,1675304409
232,placido de castro,-10.3353,-67.1856,73.78,94,100,1.39,BR,1675304409
233,egvekinot,66.3167,-179.1667,6.98,91,54,8.08,RU,1675304409
234,hambantota,6.1241,81.1185,76.51,87,92,6.96,LK,1675304410
235,gizo,-8.103,156.8419,85.01,71,100,10.2,SB,1675304410
236,touros,-5.1989,-35.4608,80.01,73,100,10.78,BR,1675304411
237,port-cartier,50.0334,-66.8654,8.28,98,93,4.54,CA,1675304411
238,lompoc,34.6391,-120.4579,53.02,77,0,8.01,US,1675304411
239,salalah,17.0151,54.0924,73.49,56,75,4.61,OM,1675304412
240,bathsheba,13.2167,-59.5167,75.81,73,20,8.05,BB,1675304412
241,kochki,54.3358,80.4806,-7.51,100,39,3.58,RU,1675304413
242,darhan,49.4867,105.9228,-6.61,93,99,4.65,MN,1675304213
243,stornoway,58.2093,-6.3865,44.92,97,75,4.61,GB,1675304413
244,nha trang,12.25,109.1833,78.8,88,86,5.61,VN,1675304414
245,bolshoye murashkino,55.7826,44.7754,21.52,96,100,8.86,RU,1675304414
246,pevek,69.7008,170.3133,-7.55,95,23,1.48,RU,1675304144
247,aklavik,68.2191,-135.0107,-28.43,100,62,6.73,CA,1675304415
248,batagay-alyta,67.8006,130.4114,-21.37,99,100,0.69,RU,1675304415
249,rawson,-43.3002,-65.1023,65.8,65,26,16.2,AR,1675304415
250,saint george,37.1041,-113.5841,43.95,38,0,1.99,US,1675304416
251,katsuura,35.1333,140.3,44.62,34,100,11.95,JP,1675304416
252,acarau,-2.8856,-40.12,78.53,82,94,14.88,BR,1675304417
253,seda,57.65,25.75,32.05,99,100,1.36,LV,1675304417
254,puerto baquerizo moreno,-0.9,-89.6,77.43,80,29,5.26,EC,1675304417
255,zhigansk,66.7697,123.3711,-26.99,96,100,16.24,RU,1675304418
256,linfen,36.0889,111.5189,35.62,28,100,5.46,CN,1675304418
257,airai,-8.9266,125.4092,69.03,80,97,3.42,TL,1675304418
258,pangody,65.85,74.4859,5.23,98,90,8.66,RU,1675304419
259,ribeira grande,38.5167,-28.7,52.77,81,20,10.0,PT,1675304419
260,forest grove,45.5198,-123.1107,42.46,76,0,3.44,US,1675304419
261,dingle,10.9995,122.6711,82.18,77,56,13.82,PH,1675304419
262,kavieng,-2.5744,150.7967,85.66,61,100,8.19,PG,1675304420
263,kruisfontein,-34.0033,24.7314,58.89,76,31,6.11,ZA,1675304420
264,sisimiut,66.9395,-53.6735,-0.13,94,100,3.06,GL,1675304198
265,kandrian,-6.2167,149.55,88.74,59,100,9.17,PG,1675304421
266,kitgum,3.2783,32.8867,70.18,53,17,2.86,UG,1675304421
267,vostok,46.4856,135.8833,-0.47,89,100,11.59,RU,1675304421
268,lelydorp,5.7,-55.2333,73.94,93,98,2.19,SR,1675304422
269,bairiki,1.3292,172.9752,87.8,66,40,10.36,KI,1675304422
270,nur,52.6683,22.3221,33.69,98,99,9.93,PL,1675304422
271,omsukchan,62.5333,155.8,-8.46,99,78,1.48,RU,1675304423
272,northam,51.0333,-4.2167,48.38,92,11,13.31,GB,1675304423
273,hualmay,-11.0964,-77.6139,72.25,80,100,7.09,PE,1675304423
274,biabou,13.2,-61.1333,76.89,73,16,14.7,VC,1675304424
275,barra da estiva,-13.6261,-41.3269,64.96,85,53,3.24,BR,1675304424
276,petropavlovsk-kamchatskiy,53.0452,158.6483,10.99,57,0,6.71,RU,1675304292
277,upernavik,72.7868,-56.1549,-18.06,93,73,3.87,GL,1675304424
278,paralimni,35.0375,33.9833,43.68,57,0,18.63,CY,1675304425
279,muhos,64.808,25.9931,22.78,98,99,2.82,FI,1675304425
280,praia,14.9215,-23.5087,68.54,73,75,16.11,CV,1675304260
281,coihaique,-45.5752,-72.0662,58.95,51,0,4.61,CL,1675304425
282,azua,18.4532,-70.7349,69.06,70,5,7.31,DO,1675304426
283,pokhara,28.2333,83.9833,57.25,12,0,4.92,NP,1675304426
284,mogadishu,2.0371,45.3438,75.81,79,97,14.16,SO,1675304426
285,ayan,56.45,138.1667,-7.38,61,100,8.93,RU,1675304427
286,coquimbo,-29.9533,-71.3436,64.13,82,0,1.14,CL,1675304265
287,walvis bay,-22.9575,14.5053,64.09,90,100,5.95,NA,1675304427
288,mount gambier,-37.8333,140.7667,55.62,76,100,17.38,AU,1675304427
289,villa carlos paz,-31.4241,-64.4978,67.28,54,13,5.01,AR,1675304428
290,manakara,-22.1333,48.0167,71.38,91,100,2.68,MG,1675304428
291,cullera,39.1667,-0.25,45.64,85,1,1.99,ES,1675304150
292,valverde del camino,37.5751,-6.7543,37.02,65,0,3.09,ES,1675304428
293,okhotsk,59.3833,143.3,-0.49,86,100,14.14,RU,1675304429
294,sebring,27.4956,-81.4409,73.11,79,75,6.91,US,1675304369
295,bama,11.5221,13.6856,67.55,46,86,6.26,NG,1675304429
296,saskylakh,71.9167,114.0833,-12.23,98,100,7.14,RU,1675304430
297,fort nelson,58.8053,-122.7002,-11.61,77,0,9.22,CA,1675304430
298,misratah,32.3754,15.0925,57.16,64,99,1.34,LY,1675304430
299,bandundu,-3.3167,17.3667,72.39,81,22,3.22,CD,1675304431
300,mongu,-15.2484,23.1274,66.97,92,100,1.16,ZM,1675304431
301,kailua,21.4022,-157.7394,81.81,77,100,3.0,US,1675304259
302,bosaso,11.2842,49.1816,71.94,76,23,4.85,SO,1675304431
303,kudahuvadhoo,2.6708,72.8944,80.19,64,46,13.47,MV,1675304432
304,den helder,52.9599,4.7593,45.01,93,100,17.0,NL,1675304390
305,aksay,47.26,39.87,34.25,67,100,3.0,RU,1675304432
306,orikhiv,47.5673,35.7858,28.89,91,100,8.01,UA,1675304432
307,mineros,-17.1167,-63.2333,72.75,97,62,3.83,BO,1675304433
308,tay ninh,11.3,106.1,83.35,59,49,5.44,VN,1675304433
309,ilebo,-4.3167,20.5833,69.75,88,95,0.85,CD,1675304433
310,panzhihua,26.5851,101.7128,60.98,41,9,1.23,CN,1675304434
311,korla,41.7597,86.1469,18.79,79,8,2.93,CN,1675304434
312,calama,-22.4667,-68.9333,61.29,59,20,9.22,CL,1675304276
313,hilo,19.7297,-155.09,81.28,82,40,4.61,US,1675304434
314,ostrovnoy,68.0531,39.5131,16.9,92,49,20.47,RU,1675304435
315,kitob,39.0843,66.8332,46.83,90,100,6.98,UZ,1675304435
316,santa rosa,14.3122,121.1114,86.02,70,55,12.71,PH,1675304287
317,dongsheng,39.8161,109.9776,20.1,17,99,4.83,CN,1675304435
318,maniwaki,46.3834,-75.966,14.38,85,73,4.61,CA,1675304247
319,mukhen,48.1,136.1,1.69,79,94,8.63,RU,1675304436
320,aransas pass,27.9095,-97.15,39.97,95,100,11.5,US,1675304436
321,yarada,17.65,83.2667,74.12,58,65,6.91,IN,1675304436
322,kanigoro,-8.13,112.219,77.2,85,100,1.21,ID,1675304437
323,fairview,40.8126,-73.999,33.24,42,0,12.66,US,1675304213
324,barra dos coqueiros,-10.9089,-37.0386,80.62,78,20,9.22,BR,1675304437
325,vad,55.5301,44.2114,22.5,96,100,7.65,RU,1675304358
326,kamenka,51.3223,42.7678,27.97,97,100,6.73,RU,1675304275
327,baykit,61.67,96.37,-2.09,100,100,2.57,RU,1675304411
328,linguere,15.3953,-15.1193,71.49,13,20,9.44,SN,1675304438
329,nizhneangarsk,55.7833,109.55,1.6,93,100,1.21,RU,1675304438
330,cravo norte,6.3017,-70.2041,79.77,37,5,6.04,CO,1675304438
331,kirundo,-2.5833,30.1667,57.92,94,10,2.59,BI,1675304438
332,guerrero negro,27.9769,-114.0611,57.88,58,0,10.27,MX,1675304439
333,key west,24.5557,-81.7826,78.8,84,0,8.05,US,1675304439
334,koson,39.0375,65.585,46.72,92,100,5.93,UZ,1675304439
335,klaksvik,62.2266,-6.589,34.72,63,100,8.61,FO,1675304440
336,tulle,45.3333,1.8333,36.54,82,95,4.0,FR,1675304440
337,mweka,-4.85,21.5667,66.18,96,92,1.61,CD,1675304440
338,talnakh,69.4865,88.3972,7.21,96,100,8.32,RU,1675304441
339,mayfield,36.7417,-88.6367,31.82,76,96,3.94,US,1675304441
340,san miguel,13.4833,-88.1833,82.06,74,0,2.3,SV,1675304441
341,ichinohe,40.2069,141.3017,28.85,73,32,15.9,JP,1675304442
342,mackay,-21.15,149.2,96.67,63,43,3.42,AU,1675304431
343,ilulissat,69.2167,-51.1,14.02,52,75,20.71,GL,1675304442
344,road town,18.4167,-64.6167,77.09,73,0,17.72,VG,1675304442
345,ornskoldsvik,63.2909,18.7153,14.95,92,48,9.22,SE,1675304443
346,komsomolskiy,40.4272,71.7189,30.92,74,100,6.91,UZ,1675304303
347,asmar,35.0333,71.3581,47.25,52,100,9.82,AF,1675304443
348,the valley,18.217,-63.0578,77.09,77,0,18.12,AI,1675304443
349,belmonte,-15.8631,-38.8828,76.12,86,17,5.73,BR,1675304444
350,aberdeen,57.1437,-2.0981,39.69,96,100,3.44,GB,1675304444
351,hamilton,39.1834,-84.5333,29.08,62,0,4.61,US,1675304444
352,san vicente,-26.6167,-54.1333,68.95,79,0,2.19,AR,1675304445
353,lukovetskiy,64.2956,41.9211,18.28,97,95,5.68,RU,1675304445
354,vila franca do campo,37.7167,-25.4333,52.21,82,100,6.49,PT,1675304445
355,kalnibolotskaya,46.0058,40.4568,31.68,98,100,6.96,RU,1675304446
356,hvide sande,56.0045,8.1294,40.08,77,6,23.51,DK,1675304446
357,lolodorf,3.2333,10.7333,69.87,100,52,1.01,CM,1675304446
358,kapiri mposhi,-13.9652,28.6809,61.86,98,100,3.8,ZM,1675304447
359,asau,46.4333,26.4,31.12,87,97,8.48,RO,1675304447
360,polunochnoye,60.8697,60.4153,6.31,98,70,2.51,RU,1675304447
361,batticaloa,7.7102,81.6924,77.2,87,100,10.56,LK,1675304447
362,yining,29.0361,114.5636,45.43,58,100,4.0,CN,1675304448
363,kanniyakumari,8.0833,77.5667,77.97,71,100,7.34,IN,1675304448
364,la libertad,-2.2333,-80.9,80.26,78,0,6.91,EC,1675304448
365,montepuez,-13.1256,38.9997,68.27,99,99,2.57,MZ,1675304449
366,jalu,29.0331,21.5482,50.02,65,0,8.21,LY,1675304449
367,pangnirtung,66.1451,-65.7125,-21.26,77,100,2.64,CA,1675304449
368,mahibadhoo,3.7833,72.9667,79.16,70,100,11.72,MV,1675304450
369,fortuna,40.5982,-124.1573,47.98,73,0,0.0,US,1675304450
370,coffs harbour,-30.3,153.1333,91.13,74,2,20.71,AU,1675304450
371,nagyhegyes,47.5395,21.3444,35.74,83,100,16.04,HU,1675304450
372,gamba,-2.65,10.0,76.1,89,47,3.76,GA,1675304451
373,montrose,38.4166,-108.2673,17.01,76,3,1.48,US,1675304290
374,lata,40.1629,-8.3327,40.05,86,0,4.21,PT,1675304451
375,beringovskiy,63.05,179.3167,21.65,96,100,9.01,RU,1675304452
376,kampene,-3.6,26.6667,66.13,98,69,2.26,CD,1675304329
377,yima,34.7381,111.8839,32.18,18,100,6.67,CN,1675304452
378,zatoka,46.0725,30.4654,34.09,78,50,11.54,UA,1675304452
379,cairns,-16.9167,145.7667,95.11,64,70,11.5,AU,1675304305
380,pacific grove,36.6177,-121.9166,54.25,77,0,8.01,US,1675304453
381,saint-georges,12.0564,-61.7485,73.08,83,20,0.0,GD,1675304453
382,gladstone,-23.85,151.25,87.73,66,75,8.05,AU,1675304454
383,kalmunai,7.4167,81.8167,77.07,89,90,7.43,LK,1675304454
384,soyo,-6.1349,12.3689,77.68,83,81,7.61,AO,1675304454
385,osmena,10.5208,119.9258,80.11,83,10,18.16,PH,1675304455
386,riyadh,24.6877,46.7219,55.54,71,66,8.1,SA,1675304433
387,manavalakurichi,8.1333,77.3,77.22,74,100,3.18,IN,1675304455
388,samarai,-10.6167,150.6667,85.39,69,100,11.99,PG,1675304455
389,vila velha,-20.3297,-40.2925,76.95,89,40,8.05,BR,1675304456
390,bumba,2.1833,22.4667,72.54,74,93,3.51,CD,1675304168
391,oranjemund,-28.55,16.4333,61.57,97,42,8.39,NA,1675304456
392,katangli,51.7102,143.2326,-3.95,83,67,7.96,RU,1675304237
393,ponta delgada,37.7333,-25.6667,52.52,76,20,6.91,PT,1675304456
394,blagoveshchenka,52.8333,79.8667,13.57,96,100,5.79,RU,1675304457
395,abbeville,50.1,1.8333,48.25,92,32,12.82,FR,1675304457
396,desert hot springs,33.9611,-116.5017,60.22,17,0,5.75,US,1675304449
397,mozelos,41.8677,-8.3978,46.89,76,0,4.45,PT,1675304207
398,mazyr,52.0495,29.2456,32.38,95,100,10.27,BY,1675304457
399,mugur-aksy,50.35,90.5,-0.89,52,37,5.01,RU,1675304458
400,dryden,49.7833,-92.7503,-1.91,78,100,10.36,CA,1675304458
401,aripuana,-9.1667,-60.6333,71.82,93,77,1.99,BR,1675304458
402,shimoda,34.6667,138.95,47.1,57,100,11.56,JP,1675304459
403,nioro,13.35,-15.75,72.07,23,4,8.93,GM,1675304459
404,kieta,-6.2167,155.6333,85.87,66,72,9.13,PG,1675304377
405,huancavelica,-12.7667,-74.9833,39.52,97,100,2.84,PE,1675304459
406,manzhouli,49.6,117.4333,-3.33,90,23,4.09,CN,1675304460
407,chicama,-7.8447,-79.1469,70.34,67,40,3.65,PE,1675304460
408,nicoya,10.1483,-85.452,75.51,70,55,10.54,CR,1675304461
409,orange,33.7,-117.7675,62.89,42,20,3.44,US,1675304206
410,vegreville,53.5001,-112.0518,-3.3,70,100,4.61,CA,1675304461
411,antofagasta,-23.65,-70.4,69.08,81,24,4.61,CL,1675304280
412,cranbrook,49.4999,-115.7688,19.24,86,75,3.44,CA,1675304461
413,berezovyy,51.6667,135.7,-3.15,85,85,1.52,RU,1675304462
414,quarai,-30.3875,-56.4514,84.63,33,55,7.65,BR,1675304462
415,ramhormoz,31.28,49.6035,53.6,75,0,3.06,IR,1675304463
416,plessisville,46.2186,-71.762,8.06,96,90,8.14,CA,1675304463
417,spirit river,55.7833,-118.8361,-8.97,96,100,7.47,CA,1675304463
418,tyubuk,56.0552,60.9405,3.24,99,95,2.37,RU,1675304464
419,cockburn town,21.4612,-71.1419,77.63,71,0,20.47,TC,1675304464
420,calabozo,8.9242,-67.4293,80.33,39,0,9.17,VE,1675304384
421,arlit,18.7369,7.3853,62.73,16,11,9.1,NE,1675304464
422,sabha,27.0377,14.4283,46.51,61,12,8.25,LY,1675304465
423,kuala terengganu,5.3302,103.1408,80.98,94,100,4.36,MY,1675304465
424,santa clara,22.4,-79.9667,71.26,94,20,6.91,CU,1675304466
425,masuda,34.6667,131.85,46.67,49,75,8.05,JP,1675304466
426,huamachuco,-7.8,-78.0667,51.49,91,100,2.82,PE,1675304466
427,penzance,50.1186,-5.5371,48.88,73,93,13.53,GB,1675304467
428,bonavista,48.6499,-53.1147,16.09,57,24,9.71,CA,1675304467
429,aras,42.5617,-2.356,30.63,86,0,9.22,ES,1675304467
430,grootfontein,-19.5667,18.1167,65.5,87,100,3.09,NA,1675304468
431,wajir,1.7471,40.0573,74.73,75,2,11.48,KE,1675304468
432,pouembout,-21.1333,164.9,87.28,56,100,5.08,NC,1675304468
433,mujiayingzi,42.1167,118.7833,14.83,29,3,5.14,CN,1675304469
434,kozhva,65.1073,57.0459,22.42,92,94,9.73,RU,1675304469
435,nicolas bravo,18.45,-88.9167,68.2,88,1,2.84,MX,1675304470
436,turukhansk,65.8167,87.9833,10.0,96,100,8.7,RU,1675304470
437,kaeo,-35.1,173.7833,78.33,83,100,4.9,NZ,1675304470
438,marabba,12.35,32.1833,70.29,16,58,14.72,SD,1675304470
439,san quintin,30.4833,-115.95,56.62,59,0,7.05,MX,1675304471
440,vanimo,-2.6741,141.3028,86.5,60,24,3.98,PG,1675304471
441,nouadhibou,20.931,-17.0347,61.56,78,100,22.03,MR,1675304472
442,wagar,16.1525,36.2032,69.19,73,4,13.06,SD,1675304472
443,kushima,31.4583,131.2333,57.42,64,49,10.11,JP,1675304472
444,tiznit,29.5833,-9.5,48.72,36,0,3.4,MA,1675304473
445,ondangwa,-17.9167,15.95,71.6,26,69,3.44,NA,1675304473
446,lambarene,-0.7001,10.2406,74.61,93,67,2.19,GA,1675304473
447,ewa beach,21.3156,-158.0072,81.77,70,40,9.22,US,1675304474
448,sao jose da coroa grande,-8.8978,-35.1478,78.26,78,14,5.44,BR,1675304474
449,barquisimeto,10.0739,-69.3228,64.81,82,0,3.76,VE,1675304474
450,sinnamary,5.3833,-52.95,75.76,88,100,7.05,GF,1675304475
451,natal,-5.795,-35.2094,80.82,78,40,10.36,BR,1675304475
452,nacala,-14.5428,40.6728,74.73,93,66,4.36,MZ,1675304475
453,rio gallegos,-51.6226,-69.2181,60.85,39,0,1.14,AR,1675304241
454,kenai,60.5544,-151.2583,30.09,93,100,4.61,US,1675304473
455,korem,12.5058,39.5228,50.0,55,94,1.99,ET,1675304476
456,aksu,41.1231,80.2644,13.39,85,99,2.95,CN,1675304476
457,bengkulu,-3.8004,102.2655,80.31,74,96,5.26,ID,1675304477
458,kavaratti,10.5669,72.642,80.01,76,92,10.38,IN,1675304477
459,verkhnevilyuysk,63.4453,120.3167,-8.21,97,100,5.64,RU,1675304477
460,midland,31.9974,-102.0779,30.87,87,100,0.0,US,1675304449
461,suntar,62.1444,117.6319,-14.71,95,100,5.99,RU,1675304478
462,qui nhon,13.7667,109.2333,74.17,90,100,7.02,VN,1675304478
463,chunoyar,57.4467,97.3217,-5.73,100,100,2.66,RU,1675304478
464,belaya gora,68.5333,146.4167,-15.34,97,97,2.06,RU,1675304479
465,birin,26.8865,88.0718,51.69,59,0,2.55,NP,1675304479
466,roxana,10.2753,-83.7513,70.02,90,13,3.24,CR,1675304479
467,grand-santi,4.25,-54.3833,71.24,99,100,2.08,GF,1675304480
468,dothan,31.2232,-85.3905,61.0,90,75,0.0,US,1675304280
469,poum,-20.2333,164.0167,81.41,64,100,9.01,NC,1675304480
470,hobyo,5.3505,48.5268,75.27,69,25,14.97,SO,1675304480
471,blackwater,-23.5833,148.8833,93.36,37,14,9.01,AU,1675304481
472,saint-joseph,-21.3667,55.6167,73.78,80,16,6.55,RE,1675304481
473,iqaluit,63.7506,-68.5145,-25.87,62,100,3.44,CA,1675304481
474,salinopolis,-0.6136,-47.3561,75.63,87,100,1.12,BR,1675304482
475,zhicheng,30.2956,111.5047,39.78,56,100,9.98,CN,1675304482
476,tuy hoa,13.0833,109.3,74.32,92,98,5.73,VN,1675304482
477,hervey bay,-25.2986,152.8535,81.9,79,19,5.03,AU,1675304483
478,port-gentil,-0.7193,8.7815,80.65,80,42,5.39,GA,1675304483
479,dakoro,14.5106,6.765,65.89,17,67,10.98,NE,1675304239
480,eureka,40.8021,-124.1637,48.25,80,16,3.8,US,1675304483
481,preobrazheniye,42.9019,133.9064,17.24,45,1,9.08,RU,1675304484
482,maceio,-9.6658,-35.7353,74.64,94,20,2.3,BR,1675304484
483,lasem,-6.6922,111.4527,78.01,87,100,5.21,ID,1675304485
484,zyryanka,65.75,150.85,-24.38,97,93,5.19,RU,1675304485
485,kaduy,59.2,37.15,18.57,98,98,5.08,RU,1675304485
486,nokha,27.6,73.4167,56.34,35,0,5.19,IN,1675304486
487,berdigestyakh,62.0989,126.6992,-16.11,97,100,1.99,RU,1675304486
488,grand forks,47.9417,-97.4337,-0.47,78,75,4.61,US,1675304486
489,roebourne,-20.7833,117.1333,92.43,48,12,8.5,AU,1675304487
490,dakar,14.6937,-17.4441,65.28,79,1,19.37,SN,1675304403
491,hurricane,37.1753,-113.2899,42.03,56,3,8.12,US,1675304312
492,kushmurun,52.4503,64.6311,-4.34,90,6,5.12,KZ,1675304487
493,fort morgan,40.2503,-103.8,23.65,68,0,0.0,US,1675304368
494,san luis,-33.295,-66.3356,65.14,90,40,14.5,AR,1675304291
495,rafai,4.95,23.9167,69.03,65,5,2.3,CF,1675304488
496,atambua,-9.1061,124.8925,81.1,73,100,5.68,ID,1675304488
497,marfino,55.7028,37.3822,28.65,79,75,8.95,RU,1675304488
498,vinces,-1.55,-79.7333,75.7,89,94,3.56,EC,1675304489
499,kasempa,-13.4584,25.8338,62.31,95,100,2.8,ZM,1675304489
500,beni mazar,28.4962,30.8029,48.52,64,1,6.2,EG,1675304489
501,shuangcheng,45.35,126.2833,4.68,72,3,8.21,CN,1675304490
502,marataizes,-21.0433,-40.8244,74.93,89,87,11.54,BR,1675304490
503,balud,10.1476,123.6953,87.76,77,64,13.87,PH,1675304491
504,shingu,33.7333,135.9833,47.88,43,100,3.02,JP,1675304491
505,voyvozh,62.892,54.9635,22.57,96,84,6.17,RU,1675304492
506,gorontalo,0.5412,123.0595,82.69,71,88,5.75,ID,1675304492
507,ixtapa,20.7,-105.2,72.63,83,40,4.61,MX,1675304492
508,isangel,-19.55,169.2667,84.04,74,98,6.15,VU,1675304493
509,shirokiy,49.758,129.523,-4.41,89,6,9.75,RU,1675304493
510,rorvik,64.8621,11.2373,30.31,93,100,5.75,NO,1675304494
511,namatanai,-3.6667,152.4333,85.82,60,77,4.83,PG,1675304494
512,yarkovo,57.4028,67.0786,10.35,96,91,3.94,RU,1675304494
513,luderitz,-26.6481,15.1594,62.78,78,45,18.32,NA,1675304495
514,kilindoni,-7.9139,39.6668,79.61,83,82,4.81,TZ,1675304495
515,luorong,24.4058,109.6086,62.47,64,100,6.31,CN,1675304495
516,roma,43.2128,-75.4557,23.38,63,100,1.99,US,1675304302
517,palmer,42.1584,-72.3287,25.63,58,0,5.75,US,1675304436
518,wunstorf,52.4333,9.4167,42.4,79,75,21.99,DE,1675304496
519,lethem,3.3803,-59.7968,78.98,66,14,12.46,GY,1675304496
520,mulbagal,13.1667,78.4,64.63,63,83,5.82,IN,1675304496
521,sioux lookout,50.1001,-91.917,-3.93,77,40,9.22,CA,1675304200
522,aitape,-3.1374,142.3475,86.04,60,93,4.43,PG,1675304497
523,slavyanka,42.8633,131.3847,17.51,52,1,9.28,RU,1675304497
524,pietarsaari,63.65,22.6833,28.89,93,100,3.0,FI,1675304497
525,narsaq,60.9167,-46.05,17.82,92,100,4.59,GL,1675304498
526,ekhabi,53.5102,142.9671,-10.46,88,78,12.21,RU,1675304498
527,camocim,-2.9022,-40.8411,76.71,88,100,10.07,BR,1675304498
528,maurawan,26.4333,80.8833,50.04,67,0,7.38,IN,1675304499
529,port macquarie,-31.4333,152.9167,85.89,58,3,16.49,AU,1675304499
530,nsanje,-16.92,35.262,71.4,98,67,2.19,MW,1675304499
531,marzuq,14.4,46.4667,61.21,48,9,3.67,YE,1675304500
532,libourne,44.9167,-0.25,41.5,88,22,4.68,FR,1675304500
533,shiyan,32.6475,110.7781,38.25,29,100,5.35,CN,1675304500
534,minab,27.1467,57.0801,64.49,82,33,2.55,IR,1675304501
535,cuamba,-14.8031,36.5372,69.15,96,96,2.46,MZ,1675304501
536,whithorn,18.2604,-78.0378,74.46,83,86,4.5,JM,1675304501
537,alice springs,-23.7,133.8833,81.95,28,0,11.5,AU,1675304501
538,am timan,11.0297,20.2827,74.64,20,1,6.89,TD,1675304502
539,laguna,38.421,-121.4238,52.75,60,75,3.44,US,1675304330
540,nemuro,43.3236,145.575,24.17,67,99,31.63,JP,1675304502
541,pionerskiy,54.9508,20.2275,35.74,87,88,13.02,RU,1675304221
542,huntsville,34.7304,-86.5861,37.2,96,100,8.05,US,1675304463
543,barbacoas,1.6715,-78.1398,74.16,96,100,1.61,CO,1675304503
544,port hardy,50.6996,-127.4199,41.18,87,100,20.71,CA,1675304503
545,bull savanna,17.8868,-77.5902,71.55,78,78,5.68,JM,1675304504
546,rock sound,24.9,-76.2,75.6,74,0,9.46,BS,1675304504
547,tagusao,9.1924,117.8141,82.67,72,54,5.32,PH,1675304504
548,verkhniy baskunchak,48.2256,46.7217,22.96,92,100,6.69,RU,1675304505
549,samarinda,-0.5,117.15,76.14,92,100,2.37,ID,1675304505
550,lasa,46.6166,10.7002,38.28,94,60,7.56,IT,1675304505
551,tazovskiy,67.4667,78.7,-0.54,99,92,6.93,RU,1675304506
552,hohhot,40.8106,111.6522,17.89,35,20,2.24,CN,1675304506
553,mascote,-15.5631,-39.3025,70.9,98,12,1.05,BR,1675304506
554,campobasso,41.6333,14.5833,40.41,93,3,5.59,IT,1675304464
555,tame,6.461,-71.73,74.75,47,12,5.28,CO,1675304507
556,malakal,9.5334,31.6605,78.78,18,62,11.48,SS,1675304507
557,labrea,-7.2586,-64.7981,74.26,97,100,0.85,BR,1675304507
558,puerto leguizamo,-0.1934,-74.7819,73.45,57,7,2.59,CO,1675304508
559,whyalla,-33.0333,137.5833,70.57,44,21,19.35,AU,1675304508
560,prestice,49.573,13.3335,36.27,90,75,6.91,CZ,1675304508
561,mitu,1.1983,-70.1733,77.02,62,63,2.3,CO,1675304509
562,cukai,4.25,103.4167,77.38,92,100,4.83,MY,1675304509
563,kovdor,67.5662,30.4758,16.92,97,100,4.05,RU,1675304509
564,tsurib,42.2368,46.8307,26.94,51,70,8.86,RU,1675304509
